{
"type": "FeatureCollection",
"name": "supermarkets",
"crs": { "type": "name", "properties": { "name": "urn:ogc:def:crs:OGC:1.3:CRS84" } },
"features": [
{ "type": "Feature", "properties": { "number": 1, "x": 31.868879380858601, "y": 31.410573691311299, "name": "نوتيلا ماركت", "rate": null, "address": "بجوار عباس الترزى, Madinet Izbat Al Borg, Damietta, Damietta Governorate " }, "geometry": { "type": "Point", "coordinates": [ 31.868879380858601, 31.410573691311299 ] } },
{ "type": "Feature", "properties": { "number": 2, "x": 31.8670232922045, "y": 31.4110406754568, "name": "مركت المرزوقي", "rate": null, "address": " Unnamed Road, مدينة عزبة البرج، الظهير الصحراوى لمحافظة دمياط، دمياط،, Damietta" }, "geometry": { "type": "Point", "coordinates": [ 31.8670232922045, 31.4110406754568 ] } },
{ "type": "Feature", "properties": { "number": 3, "x": 31.865519527021501, "y": 31.411173282638, "name": "مركت اولاد بدر", "rate": null, "address": " Madinet Izbat Al Borg, Damietta Desert, Damietta Governorate " }, "geometry": { "type": "Point", "coordinates": [ 31.865519527021501, 31.411173282638 ] } },
{ "type": "Feature", "properties": { "number": 4, "x": 31.867043021754998, "y": 31.411823393031899, "name": "ماركت اولاد وهبه", "rate": null, "address": "Madinet Izbat Al Borg, Damietta, Damietta Governorate " }, "geometry": { "type": "Point", "coordinates": [ 31.867043021754998, 31.411823393031899 ] } },
{ "type": "Feature", "properties": { "number": 5, "x": 31.865133288920099, "y": 31.4110450913244, "name": "ماركت الزكي", "rate": 3.7, "address": "الطريق القديم، شطا، دمياط،, Damietta Governorate" }, "geometry": { "type": "Point", "coordinates": [ 31.865133288920099, 31.4110450913244 ] } }
]
}
